{"data":{"id":"1","documentId":"doc1","title":"Green Thumb Lawn Care","address":{"street":"123 Garden Way","city":"Springfield","state":"IL","postalCode":"62701","country":"USA","location":{"lat":39.7817,"lng":-89.6501}},"website":"https://greenthumb-lawncare.com","phone":"(217) 555-0123","phoneUnformatted":"2175550123","featured":true,"categories":["Lawn Mowing","Landscaping","Garden Maintenance"],"totalScore":4.8,"reviewsCount":156,"reviewsLink":"https://greenthumb-lawncare.com/reviews","openingHours":["Monday-Friday: 7:00 AM - 6:00 PM","Saturday: 8:00 AM - 4:00 PM","Sunday: Closed"],"openingHoursRaw":[{"day":"Monday","hours":"7:00 AM - 6:00 PM"},{"day":"Tuesday","hours":"7:00 AM - 6:00 PM"},{"day":"Wednesday","hours":"7:00 AM - 6:00 PM"},{"day":"Thursday","hours":"7:00 AM - 6:00 PM"},{"day":"Friday","hours":"7:00 AM - 6:00 PM"},{"day":"Saturday","hours":"8:00 AM - 4:00 PM"},{"day":"Sunday","hours":"Closed"}],"imageUrls":["https://example.com/lawn1.jpg","https://example.com/lawn2.jpg"],"featuredImageUrl":"https://example.com/lawn1.jpg","socials":{"instagram":"@greenthumb","twitter":"@greenthumb","facebook":"greenthumb","youtube":null,"tiktok":null},"description":"Professional lawn care services with over 15 years of experience. We specialize in residential and commercial lawn maintenance, landscaping, and garden care.","domain":"greenthumb-lawncare.com","emails":["contact@greenthumb-lawncare.com"],"rank":1,"scrapedAt":"2024-03-20T10:00:00Z"},"documentId":"doc1"}
{"data":{"id":"2","documentId":"doc2","title":"Elite Landscaping Services","address":{"street":"456 Park Avenue","city":"Springfield","state":"IL","postalCode":"62702","country":"USA","location":{"lat":39.7818,"lng":-89.6502}},"website":"https://elite-landscaping.com","phone":"(217) 555-0124","phoneUnformatted":"2175550124","featured":false,"categories":["Landscaping","Irrigation","Tree Services"],"totalScore":4.6,"reviewsCount":89,"reviewsLink":"https://elite-landscaping.com/reviews","openingHours":["Monday-Friday: 8:00 AM - 5:00 PM","Saturday: 9:00 AM - 3:00 PM","Sunday: Closed"],"openingHoursRaw":[{"day":"Monday","hours":"8:00 AM - 5:00 PM"},{"day":"Tuesday","hours":"8:00 AM - 5:00 PM"},{"day":"Wednesday","hours":"8:00 AM - 5:00 PM"},{"day":"Thursday","hours":"8:00 AM - 5:00 PM"},{"day":"Friday","hours":"8:00 AM - 5:00 PM"},{"day":"Saturday","hours":"9:00 AM - 3:00 PM"},{"day":"Sunday","hours":"Closed"}],"imageUrls":["https://example.com/landscape1.jpg","https://example.com/landscape2.jpg"],"featuredImageUrl":"https://example.com/landscape1.jpg","socials":{"instagram":"@elitelandscaping","twitter":null,"facebook":"elitelandscaping","youtube":"@elitelandscaping","tiktok":null},"description":"Premium landscaping services including design, installation, and maintenance. Specializing in custom outdoor spaces and sustainable landscaping solutions.","domain":"elite-landscaping.com","emails":["info@elite-landscaping.com"],"rank":2,"scrapedAt":"2024-03-20T10:00:00Z"},"documentId":"doc2"}
{"data":{"id":"3","documentId":"doc3","title":"Quick Cut Lawn Service","address":{"street":"789 Grass Street","city":"Springfield","state":"IL","postalCode":"62703","country":"USA","location":{"lat":39.7819,"lng":-89.6503}},"website":"https://quickcut-lawn.com","phone":"(217) 555-0125","phoneUnformatted":"2175550125","featured":false,"categories":["Lawn Mowing","Leaf Removal","Snow Removal"],"totalScore":4.4,"reviewsCount":45,"reviewsLink":"https://quickcut-lawn.com/reviews","openingHours":["Monday-Saturday: 6:00 AM - 8:00 PM","Sunday: 7:00 AM - 5:00 PM"],"openingHoursRaw":[{"day":"Monday","hours":"6:00 AM - 8:00 PM"},{"day":"Tuesday","hours":"6:00 AM - 8:00 PM"},{"day":"Wednesday","hours":"6:00 AM - 8:00 PM"},{"day":"Thursday","hours":"6:00 AM - 8:00 PM"},{"day":"Friday","hours":"6:00 AM - 8:00 PM"},{"day":"Saturday","hours":"6:00 AM - 8:00 PM"},{"day":"Sunday","hours":"7:00 AM - 5:00 PM"}],"imageUrls":["https://example.com/quickcut1.jpg","https://example.com/quickcut2.jpg"],"featuredImageUrl":"https://example.com/quickcut1.jpg","socials":{"instagram":null,"twitter":null,"facebook":"quickcutlawn","youtube":null,"tiktok":"@quickcutlawn"},"description":"Fast and reliable lawn maintenance services. We offer weekly mowing, seasonal cleanup, and snow removal services.","domain":"quickcut-lawn.com","emails":["service@quickcut-lawn.com"],"rank":3,"scrapedAt":"2024-03-20T10:00:00Z"},"documentId":"doc3"} 